City_ID,City,Country,Date,Lat,Lng,Max Temp,Humidity,Cloudiness,Wind Speed,Current Description,Rain inches (last 3hrs),Snow inches (last 3hrs)
0,Nyurba,RU,2020-02-19 00:13:45,63.28,118.33,-14.28,97,35,4.74,scattered clouds,0,0
1,New Norfolk,AU,2020-02-19 00:13:45,-42.78,147.06,57.2,54,75,23.04,broken clouds,0,0
2,Qaanaaq,GL,2020-02-19 00:13:45,77.48,-69.36,-11.7,62,83,7.14,broken clouds,0,0
3,Kodiak,US,2020-02-19 00:13:45,57.79,-152.41,35.6,55,1,11.41,clear sky,0,0
4,Lubango,AO,2020-02-19 00:13:45,-14.92,13.49,61.59,84,100,3.6,overcast clouds,0,0
5,Taoudenni,ML,2020-02-19 00:13:45,22.68,-3.98,71.19,13,85,13.31,overcast clouds,0,0
6,Arraial Do Cabo,BR,2020-02-19 00:13:46,-22.97,-42.03,78.8,83,32,16.11,scattered clouds,0,0
7,Rikitea,PF,2020-02-19 00:13:46,-23.12,-134.97,79.2,78,0,11.65,clear sky,0,0
8,Constitucion,CL,2020-02-19 00:13:46,-35.33,-72.42,56.82,82,0,7.83,clear sky,0,0
9,Castro,BR,2020-02-19 00:13:16,-24.79,-50.01,69.4,96,90,4.16,moderate rain,0,0
10,Mahebourg,MU,2020-02-19 00:13:46,-20.41,57.7,78.8,74,40,6.93,scattered clouds,0,0
11,Wanaka,NZ,2020-02-19 00:13:46,-44.7,169.15,57.43,56,27,7.18,scattered clouds,0,0
12,Puerto Ayora,EC,2020-02-19 00:13:46,-0.74,-90.35,87.8,58,20,17.22,few clouds,0,0
13,Pisco,PE,2020-02-19 00:13:47,-13.7,-76.22,73.99,30,98,20.8,haze,0,0
14,Vestmanna,FO,2020-02-19 00:13:47,62.16,-7.17,39.2,86,8,8.05,clear sky,0,0
15,Georgetown,MY,2020-02-19 00:10:52,5.41,100.34,77.0,78,20,3.36,few clouds,0,0
16,Poso,ID,2020-02-19 00:13:47,-1.4,120.75,71.22,85,100,2.35,light rain,0,0
17,Narsaq,GL,2020-02-19 00:13:47,60.92,-46.05,19.4,41,100,11.41,overcast clouds,0,0
18,Namie,JP,2020-02-19 00:13:47,37.48,141.0,41.0,59,75,11.41,broken clouds,0,0
19,Riyadh,SA,2020-02-19 00:13:47,24.69,46.72,68.0,24,1,5.82,clear sky,0,0
20,Avarua,CK,2020-02-19 00:13:47,-21.21,-159.78,80.6,83,100,16.11,light rain,0,0
21,Henties Bay,NA,2020-02-19 00:13:47,-22.12,14.28,63.0,89,86,1.01,overcast clouds,0,0
22,Jijiga,ET,2020-02-19 00:13:48,9.35,42.8,64.17,46,0,3.06,clear sky,0,0
23,Maceio,BR,2020-02-19 00:12:24,-9.67,-35.74,78.8,83,20,5.82,few clouds,0,0
24,Tuktoyaktuk,CA,2020-02-19 00:13:48,69.45,-133.04,-7.6,76,90,13.87,overcast clouds,0,0
25,Luderitz,NA,2020-02-19 00:13:48,-26.65,15.16,63.46,96,6,11.59,clear sky,0,0
26,Hermanus,ZA,2020-02-19 00:09:03,-34.42,19.23,69.01,87,65,8.99,broken clouds,0,0
27,Nemuro,JP,2020-02-19 00:13:48,43.32,145.57,26.6,68,75,4.7,broken clouds,0,0
28,Lae,PG,2020-02-19 00:13:49,-6.72,146.98,76.69,71,82,5.7,broken clouds,0,0
29,Laguna,US,2020-02-19 00:13:49,38.42,-121.42,70.0,27,1,4.7,clear sky,0,0
30,Cherskiy,RU,2020-02-19 00:13:49,68.75,161.3,-21.82,97,100,6.4,overcast clouds,0,0
31,Bambous Virieux,MU,2020-02-19 00:13:49,-20.34,57.76,78.8,74,40,6.93,scattered clouds,0,0
32,Palmer,US,2020-02-19 00:13:49,42.16,-72.33,36.0,86,90,3.36,moderate rain,0,0
33,Ribeira Grande,PT,2020-02-19 00:13:50,38.52,-28.7,54.82,83,36,12.91,scattered clouds,0,0
34,Lingao,CN,2020-02-19 00:13:50,19.91,109.69,66.13,84,95,15.95,overcast clouds,0,0
35,Luwuk,ID,2020-02-19 00:13:50,-0.95,122.79,82.94,71,92,9.91,overcast clouds,0,0
36,Punta Arenas,CL,2020-02-19 00:13:50,-53.15,-70.92,51.8,76,75,33.33,light intensity shower rain,0,0
37,Airai,TL,2020-02-19 00:13:50,-8.93,125.41,75.29,75,32,2.17,light rain,0,0
38,Ushuaia,AR,2020-02-19 00:13:52,-54.8,-68.3,48.2,81,90,35.57,overcast clouds,0,0
39,Busselton,AU,2020-02-19 00:13:52,-33.65,115.33,72.0,34,13,14.34,few clouds,0,0
40,Tortoli,IT,2020-02-19 00:13:52,39.93,9.66,55.4,93,40,6.93,scattered clouds,0,0
41,Hasaki,JP,2020-02-19 00:13:52,35.73,140.83,44.01,52,20,8.05,few clouds,0,0
42,Mairana,BO,2020-02-19 00:13:53,-18.12,-63.93,64.72,99,52,2.66,broken clouds,0,0
43,Tabas,IR,2020-02-19 00:13:53,33.6,56.92,46.4,49,65,4.7,broken clouds,0,0
44,Lorain,US,2020-02-19 00:13:53,41.33,-82.15,39.2,74,1,11.41,clear sky,0,0
45,Thompson,CA,2020-02-19 00:12:48,55.74,-97.86,-9.4,57,20,10.29,few clouds,0,0
46,Jamestown,US,2020-02-19 00:13:53,42.1,-79.24,37.4,86,90,14.99,overcast clouds,0,0
47,Barrow,US,2020-02-19 00:13:53,71.29,-156.79,-2.2,70,90,20.8,light snow,0,0
48,Ponta Do Sol,PT,2020-02-19 00:13:53,32.67,-17.1,60.8,59,75,19.46,broken clouds,0,0
49,Mataura,NZ,2020-02-19 00:13:53,-46.19,168.86,61.0,76,97,15.99,light rain,0,0
50,Touros,BR,2020-02-19 00:10:38,-5.2,-35.46,80.6,83,20,6.93,few clouds,0,0
51,Ilulissat,GL,2020-02-19 00:13:54,69.22,-51.1,-0.4,64,100,6.93,overcast clouds,0,0
52,Carutapera,BR,2020-02-19 00:13:54,-1.2,-46.02,81.09,83,100,20.02,light rain,0,0
53,Port-Gentil,GA,2020-02-19 00:13:54,-0.72,8.78,80.6,94,40,3.36,scattered clouds,0,0
54,Vila Velha,BR,2020-02-19 00:09:38,-20.33,-40.29,80.6,83,0,9.17,clear sky,0,0
55,Half Moon Bay,US,2020-02-19 00:10:39,37.46,-122.43,70.0,22,20,5.82,few clouds,0,0
56,Guerrero Negro,MX,2020-02-19 00:13:54,27.98,-114.06,65.34,66,99,12.66,overcast clouds,0,0
57,Vaini,TO,2020-02-19 00:13:54,-21.2,-175.2,77.0,88,75,6.93,light intensity shower rain,0,0
58,Nokaneng,BW,2020-02-19 00:13:55,-19.67,22.27,71.04,88,100,7.2,light rain,0,0
59,Iqaluit,CA,2020-02-19 00:13:55,63.75,-68.51,-29.0,66,5,4.7,clear sky,0,0
60,Atuona,PF,2020-02-19 00:13:55,-9.8,-139.03,81.81,77,11,17.63,few clouds,0,0
61,Hobart,AU,2020-02-19 00:13:55,-42.88,147.33,57.2,54,75,23.04,broken clouds,0,0
62,Morondava,MG,2020-02-19 00:13:55,-20.28,44.28,75.96,93,100,2.75,light rain,0,0
63,Ostrovnoy,RU,2020-02-19 00:13:55,68.05,39.51,12.16,98,92,5.64,overcast clouds,0,0
64,Albany,US,2020-02-19 00:13:43,42.6,-73.97,39.0,93,90,9.17,moderate rain,0,0
65,Aykino,RU,2020-02-19 00:13:56,62.22,49.99,34.02,97,100,12.15,light snow,0,0
66,Karratha,AU,2020-02-19 00:13:56,-20.74,116.85,88.05,62,27,13.22,scattered clouds,0,0
67,Havoysund,NO,2020-02-19 00:13:56,71.0,24.66,23.0,73,75,27.51,shower rain,0,0
68,Wedi,ID,2020-02-19 00:13:56,-7.74,110.58,75.2,100,40,2.06,mist,0,0
69,Sundsvall,SE,2020-02-19 00:12:00,62.39,17.31,34.0,92,62,4.7,broken clouds,0,0
70,Souillac,MU,2020-02-19 00:13:56,-20.52,57.52,78.8,74,40,6.93,scattered clouds,0,0
71,Nikolskoye,RU,2020-02-19 00:13:57,59.7,30.79,39.2,80,40,11.18,scattered clouds,0,0
72,Port Alfred,ZA,2020-02-19 00:13:57,-33.59,26.89,64.99,96,83,1.99,broken clouds,0,0
73,Tasiilaq,GL,2020-02-19 00:13:57,65.61,-37.64,23.0,79,100,24.16,light snow,0,0
74,Carnarvon,AU,2020-02-19 00:13:57,-24.87,113.63,77.0,94,36,3.36,scattered clouds,0,0
75,Samarai,PG,2020-02-19 00:13:57,-10.62,150.67,88.34,56,51,3.53,broken clouds,0,0
76,Cape Town,ZA,2020-02-19 00:12:29,-33.93,18.42,71.01,73,0,12.75,clear sky,0,0
77,Balabac,PH,2020-02-19 00:13:57,7.99,117.06,81.18,74,22,18.54,few clouds,0,0
78,Poum,NC,2020-02-19 00:13:58,-20.23,164.02,80.67,80,49,20.92,light rain,0,0
79,Margate,GB,2020-02-19 00:13:58,51.38,1.39,43.0,80,96,13.87,light rain,0,0
80,Misratah,LY,2020-02-19 00:13:58,32.38,15.09,58.89,67,0,11.99,clear sky,0,0
81,Burnie,AU,2020-02-19 00:13:58,-41.07,145.92,59.0,74,100,8.01,overcast clouds,0,0
82,Galesong,ID,2020-02-19 00:13:58,-5.32,119.37,77.0,94,40,4.7,scattered clouds,0,0
83,Upernavik,GL,2020-02-19 00:13:58,72.79,-56.15,-6.68,98,100,5.5,overcast clouds,0,0
84,Puerto Del Rosario,ES,2020-02-19 00:13:58,28.5,-13.86,66.2,77,90,20.8,overcast clouds,0,0
85,Bouca,CF,2020-02-19 00:13:58,6.51,18.27,73.96,27,21,4.34,few clouds,0,0
86,Susice,CZ,2020-02-19 00:13:58,49.23,13.52,41.0,97,75,8.05,broken clouds,0,0
87,Billings,US,2020-02-19 00:13:40,45.78,-108.5,19.0,78,75,6.93,broken clouds,0,0
88,Ugoofaaru,MV,2020-02-19 00:13:59,5.67,73.0,81.05,76,64,13.71,broken clouds,0,0
89,Bangkok,TH,2020-02-19 00:12:01,13.75,100.52,77.0,64,20,3.36,few clouds,0,0
90,Pacific Grove,US,2020-02-19 00:13:59,36.62,-121.92,69.01,59,1,12.75,clear sky,0,0
91,Cidreira,BR,2020-02-19 00:13:59,-30.18,-50.21,77.16,86,100,14.94,light rain,0,0
92,Guapo,BR,2020-02-19 00:14:00,-16.83,-49.53,75.2,83,75,2.24,broken clouds,0,0
93,Manitouwadge,CA,2020-02-19 00:14:00,49.12,-85.84,8.62,92,100,7.49,light snow,0,0
94,Paamiut,GL,2020-02-19 00:14:00,61.99,-49.67,7.75,66,97,7.25,overcast clouds,0,0
95,Salinas,US,2020-02-19 00:12:36,36.68,-121.66,70.0,59,1,12.75,clear sky,0,0
96,Bluff,NZ,2020-02-19 00:14:01,-46.6,168.33,61.0,76,55,15.99,broken clouds,0,0
97,Ancud,CL,2020-02-19 00:14:01,-41.87,-73.82,53.6,87,90,8.05,overcast clouds,0,0
98,Kavaratti,IN,2020-02-19 00:14:01,10.57,72.64,81.25,71,14,6.87,few clouds,0,0
99,Hambantota,LK,2020-02-19 00:14:02,6.12,81.12,75.56,75,100,20.29,overcast clouds,0,0
100,Saint-Joseph,RE,2020-02-19 00:14:02,-21.37,55.62,78.8,78,0,4.7,light rain,0,0
101,Hilo,US,2020-02-19 00:14:02,19.73,-155.09,80.6,51,75,10.29,broken clouds,0,0
102,Tinaquillo,VE,2020-02-19 00:14:02,9.92,-68.3,68.59,93,51,4.94,light rain,0,0
103,Cockburn Town,TC,2020-02-19 00:14:02,21.46,-71.14,78.57,79,0,22.95,clear sky,0,0
104,La Rioja,ES,2020-02-19 00:14:02,42.25,-2.5,35.6,93,40,1.12,scattered clouds,0,0
105,Tiksi,RU,2020-02-19 00:14:02,71.69,128.87,-5.42,91,100,7.0,overcast clouds,0,0
106,Kununurra,AU,2020-02-19 00:14:02,-15.77,128.73,82.4,83,40,5.82,scattered clouds,0,0
107,Marica,BR,2020-02-19 00:14:02,-22.92,-42.82,89.6,70,67,3.36,broken clouds,0,0
108,Grand Gaube,MU,2020-02-19 00:14:03,-20.01,57.66,78.8,74,40,6.93,light rain,0,0
109,Fonte Boa,BR,2020-02-19 00:14:03,-2.5,-66.27,77.27,85,76,1.41,light rain,0,0
110,Labytnangi,RU,2020-02-19 00:14:03,66.66,66.42,28.38,86,83,14.94,broken clouds,0,0
111,Lebu,CL,2020-02-19 00:14:03,-37.62,-73.65,58.46,76,0,12.53,clear sky,0,0
112,Esperance,AU,2020-02-19 00:14:03,-33.87,121.9,60.8,67,100,9.17,overcast clouds,0,0
113,Kapaa,US,2020-02-19 00:14:04,22.08,-159.32,82.4,69,90,21.92,light rain,0,0
114,Ulaangom,MN,2020-02-19 00:14:04,49.98,92.07,-9.81,99,100,1.25,light snow,0,0
115,Chapais,CA,2020-02-19 00:14:04,49.78,-74.85,14.0,85,90,8.05,light snow,0,0
116,Zhigansk,RU,2020-02-19 00:14:04,66.77,123.37,-19.93,97,96,10.76,overcast clouds,0,0
117,Bethel,US,2020-02-19 00:14:04,41.37,-73.41,45.0,100,90,3.36,light rain,0,0
118,Kurumkan,RU,2020-02-19 00:14:04,54.3,110.3,-5.35,74,53,1.83,broken clouds,0,0
119,Chuy,UY,2020-02-19 00:14:04,-33.7,-53.46,70.75,66,18,11.27,few clouds,0,0
120,East London,ZA,2020-02-19 00:14:05,-33.02,27.91,71.44,87,80,18.59,light rain,0,0
121,Cabra,ES,2020-02-19 00:14:05,37.47,-4.44,55.99,82,48,2.24,light rain,0,0
122,Iquitos,PE,2020-02-19 00:14:05,-3.75,-73.25,77.0,94,75,3.36,broken clouds,0,0
123,Mar Del Plata,AR,2020-02-19 00:11:45,-38.0,-57.56,64.4,77,20,4.7,few clouds,0,0
124,Faanui,PF,2020-02-19 00:14:05,-16.48,-151.75,82.69,77,99,12.55,overcast clouds,0,0
125,Yellowknife,CA,2020-02-19 00:14:05,62.46,-114.35,-7.01,63,75,16.11,broken clouds,0,0
126,Saint-Philippe,RE,2020-02-19 00:14:05,-21.36,55.77,78.8,78,10,4.7,light rain,0,0
127,Sao Filipe,CV,2020-02-19 00:14:05,14.9,-24.5,77.9,44,62,16.75,broken clouds,0,0
128,Krasnohrad,UA,2020-02-19 00:14:06,49.38,35.44,35.13,92,99,6.85,overcast clouds,0,0
129,Durango,MX,2020-02-19 00:13:03,24.83,-104.83,74.07,24,30,11.25,scattered clouds,0,0
130,Vestmannaeyjar,IS,2020-02-19 00:14:06,63.44,-20.27,37.67,59,98,14.27,light snow,0,0
131,Santa Maria,BR,2020-02-19 00:10:48,-29.68,-53.81,75.2,83,75,5.82,broken clouds,0,0
132,Les Cayes,HT,2020-02-19 00:14:06,18.2,-73.75,81.14,77,0,19.37,light rain,0,0
133,Olafsvik,IS,2020-02-19 00:14:06,64.89,-23.71,32.9,66,100,12.5,snow,0,0
134,Magugu,TZ,2020-02-19 00:14:06,-4.02,35.77,64.71,87,12,3.24,few clouds,0,0
135,Saskylakh,RU,2020-02-19 00:14:07,71.92,114.08,-10.44,86,0,6.31,clear sky,0,0
136,Powell River,CA,2020-02-19 00:11:20,49.85,-124.54,44.01,75,20,5.82,few clouds,0,0
137,Tateyama,JP,2020-02-19 00:14:07,34.98,139.87,48.2,45,20,21.92,few clouds,0,0
138,Sebastian,US,2020-02-19 00:11:03,35.17,-94.27,51.01,61,1,3.27,clear sky,0,0
139,Khatanga,RU,2020-02-19 00:14:07,71.97,102.5,-9.35,87,6,6.82,clear sky,0,0
140,Bamenda,CM,2020-02-19 00:14:07,5.95,10.16,62.73,29,10,1.79,clear sky,0,0
141,Manokwari,ID,2020-02-19 00:14:07,-0.87,134.08,72.63,90,100,3.91,light rain,0,0
142,Bredasdorp,ZA,2020-02-19 00:14:07,-34.53,20.04,69.8,77,100,14.99,overcast clouds,0,0
143,Luan,CH,2020-02-19 00:14:08,46.36,6.98,41.0,64,91,4.7,overcast clouds,0,0
144,Leningradskiy,RU,2020-02-19 00:14:08,69.38,178.42,-16.26,94,100,21.34,overcast clouds,0,0
145,Butaritari,KI,2020-02-19 00:14:08,3.07,172.79,83.89,76,0,20.56,light rain,0,0
146,Jumla,NP,2020-02-19 00:14:08,29.27,82.18,29.79,41,0,5.01,clear sky,0,0
147,Lhokseumawe,ID,2020-02-19 00:14:08,5.18,97.15,69.28,88,39,3.13,scattered clouds,0,0
148,Port Blair,IN,2020-02-19 00:14:08,11.67,92.75,77.0,88,20,2.24,mist,0,0
149,Novoagansk,RU,2020-02-19 00:14:08,61.94,76.66,20.35,95,99,14.16,light snow,0,0
150,Yemtsa,RU,2020-02-19 00:14:08,63.07,40.33,35.56,85,100,11.32,overcast clouds,0,0
151,Linaon,PH,2020-02-19 00:14:09,9.95,122.45,78.19,77,0,13.56,clear sky,0,0
152,Ouegoa,NC,2020-02-19 00:14:09,-20.35,164.43,85.51,54,3,5.46,clear sky,0,0
153,Clyde River,CA,2020-02-19 00:14:09,70.47,-68.59,-29.2,66,5,3.36,clear sky,0,0
154,Zaraza,VE,2020-02-19 00:14:09,9.35,-65.32,77.58,77,78,10.85,broken clouds,0,0
155,Aklavik,CA,2020-02-19 00:14:09,68.22,-135.01,8.6,77,90,4.7,overcast clouds,0,0
156,Marsa Matruh,EG,2020-02-19 00:14:10,31.35,27.25,55.4,71,40,5.82,scattered clouds,0,0
157,Peruibe,BR,2020-02-19 00:14:10,-24.32,-47.0,80.98,84,34,11.63,light rain,0,0
158,Vanavara,RU,2020-02-19 00:14:11,60.34,102.28,7.29,96,100,4.12,overcast clouds,0,0
159,Bac Lieu,VN,2020-02-19 00:14:12,9.29,105.72,75.13,65,5,9.37,clear sky,0,0
160,Dingle,PH,2020-02-19 00:14:12,11.0,122.67,75.09,84,50,15.39,light rain,0,0
161,Kavieng,PG,2020-02-19 00:14:13,-2.57,150.8,82.87,77,95,10.74,moderate rain,0,0
162,Aurangabad,IN,2020-02-19 00:12:02,19.88,75.33,63.77,23,0,4.36,clear sky,0,0
163,Hovd,MN,2020-02-19 00:14:13,48.01,91.64,3.54,85,90,2.39,overcast clouds,0,0
164,Westport,US,2020-02-19 00:13:39,41.14,-73.36,46.4,93,90,4.7,light rain,0,0
165,Iesolo,IT,2020-02-19 00:14:13,45.53,12.64,48.0,100,75,4.7,fog,0,0
166,Ixtapa,MX,2020-02-19 00:12:48,20.7,-105.2,77.0,73,5,9.17,clear sky,0,0
167,Salinopolis,BR,2020-02-19 00:14:13,-0.61,-47.36,81.0,82,100,21.41,light rain,0,0
168,Kaitangata,NZ,2020-02-19 00:14:13,-46.28,169.85,55.17,83,99,12.33,light rain,0,0
169,Hami,CN,2020-02-19 00:14:14,42.8,93.45,25.12,47,100,4.29,overcast clouds,0,0
170,Asau,RO,2020-02-19 00:14:14,46.43,26.4,43.0,93,90,2.24,overcast clouds,0,0
171,Albert Town,JM,2020-02-19 00:14:14,18.29,-77.54,80.6,83,20,21.92,few clouds,0,0
172,Senica,SK,2020-02-19 00:14:14,48.68,17.37,41.0,78,31,3.36,scattered clouds,0,0
173,Oranienburg,DE,2020-02-19 00:14:14,52.75,13.23,43.0,75,20,13.87,few clouds,0,0
174,Bengkulu,ID,2020-02-19 00:10:03,-3.8,102.27,73.08,93,66,3.8,light rain,0,0
175,Saint George,US,2020-02-19 00:11:27,37.1,-113.58,55.4,22,1,4.7,clear sky,0,0
176,Celestun,MX,2020-02-19 00:14:15,20.87,-90.4,79.93,76,24,17.56,few clouds,0,0
177,Ahipara,NZ,2020-02-19 00:14:15,-35.17,173.17,82.0,77,14,8.34,few clouds,0,0
178,Qabaqcol,AZ,2020-02-19 00:14:15,41.72,46.26,37.4,69,0,9.17,clear sky,0,0
179,Saldanha,ZA,2020-02-19 00:14:15,-33.01,17.94,71.6,64,0,4.7,clear sky,0,0
180,Tres Arroyos,AR,2020-02-19 00:14:15,-38.37,-60.28,64.38,25,0,8.55,clear sky,0,0
181,Necochea,AR,2020-02-19 00:12:09,-38.55,-58.74,57.0,94,3,0.83,clear sky,0,0
182,Tucuman,AR,2020-02-19 00:12:13,-26.82,-65.22,71.6,73,13,2.24,few clouds,0,0
183,Kokstad,ZA,2020-02-19 00:14:16,-30.55,29.42,57.16,99,100,3.58,light rain,0,0
184,Mehamn,NO,2020-02-19 00:14:16,71.04,27.85,24.8,62,75,19.46,broken clouds,0,0
185,Saint-Pierre,RE,2020-02-19 00:14:16,-21.34,55.48,78.8,78,0,4.7,light rain,0,0
186,Codrington,AU,2020-02-19 00:14:16,-38.27,141.97,61.7,75,49,21.65,light rain,0,0
187,Tignere,CM,2020-02-19 00:14:16,7.37,12.65,67.82,22,0,2.98,clear sky,0,0
188,Fare,PF,2020-02-19 00:14:16,-16.7,-151.02,82.76,75,81,12.46,broken clouds,0,0
189,Erenhot,CN,2020-02-19 00:14:16,43.65,111.98,12.6,89,12,2.35,few clouds,0,0
190,Alofi,NU,2020-02-19 00:14:16,-19.06,-169.92,84.2,70,40,8.05,scattered clouds,0,0
191,Pangnirtung,CA,2020-02-19 00:14:17,66.15,-65.71,-25.6,67,40,2.24,scattered clouds,0,0
192,Chokurdakh,RU,2020-02-19 00:14:17,70.63,147.92,-6.68,97,100,9.55,overcast clouds,0,0
193,Mushie,CD,2020-02-19 00:14:17,-3.02,16.9,72.12,97,87,5.86,moderate rain,0,0
194,Omboue,GA,2020-02-19 00:14:17,-1.57,9.26,75.65,94,63,1.14,light rain,0,0
195,Caravelas,BR,2020-02-19 00:14:17,-17.71,-39.25,80.67,85,8,11.83,light rain,0,0
196,Norman Wells,CA,2020-02-19 00:14:17,65.28,-126.83,-0.4,64,90,4.7,overcast clouds,0,0
197,Beringovskiy,RU,2020-02-19 00:12:07,63.05,179.32,-5.98,80,89,18.88,overcast clouds,0,0
198,Mitsamiouli,KM,2020-02-19 00:14:17,-11.38,43.28,84.61,70,83,6.11,broken clouds,0,0
199,Maua,BR,2020-02-19 00:14:18,-23.67,-46.46,75.2,78,75,12.75,thunderstorm,0,0
200,Dhule,IN,2020-02-19 00:14:18,20.9,74.78,67.87,26,16,5.64,few clouds,0,0
201,Oranjemund,NA,2020-02-19 00:14:18,-28.55,16.43,65.62,82,1,3.91,clear sky,0,0
202,Lagos,NG,2020-02-19 00:14:18,6.58,3.75,84.2,83,39,8.05,scattered clouds,0,0
203,Mwandiga,TZ,2020-02-19 00:14:18,-4.83,29.66,71.6,94,75,4.88,broken clouds,0,0
204,Puri,IN,2020-02-19 00:14:18,19.8,85.85,60.8,93,95,2.73,mist,0,0
205,Verkhnevilyuysk,RU,2020-02-19 00:14:18,63.45,120.32,-14.82,98,86,4.0,overcast clouds,0,0
206,Lorengau,PG,2020-02-19 00:14:19,-2.02,147.27,83.73,77,100,15.73,light rain,0,0
207,Port Elizabeth,ZA,2020-02-19 00:14:19,-33.92,25.57,66.2,88,77,8.05,light rain,0,0
208,Hofn,IS,2020-02-19 00:14:19,64.25,-15.21,37.76,67,99,12.28,overcast clouds,0,0
209,Katsuura,JP,2020-02-19 00:14:19,35.13,140.3,50.0,45,20,21.92,few clouds,0,0
210,Akniste,LV,2020-02-19 00:14:20,56.16,25.75,36.52,81,85,12.33,light snow,0,0
211,Sangar,RU,2020-02-19 00:14:20,63.92,127.47,-27.54,99,81,0.81,broken clouds,0,0
212,Karonga,MW,2020-02-19 00:14:20,-9.93,33.93,73.89,84,100,2.89,light rain,0,0
213,Kirkwall,GB,2020-02-19 00:14:20,58.98,-2.96,41.0,86,83,11.41,light rain,0,0
214,Itarema,BR,2020-02-19 00:14:20,-2.92,-39.92,76.95,90,100,3.47,light rain,0,0
215,Bambanglipuro,ID,2020-02-19 00:14:21,-7.95,110.28,76.1,86,99,2.42,light rain,0,0
216,Kodumudi,IN,2020-02-19 00:14:21,11.08,77.88,66.47,79,11,5.86,few clouds,0,0
217,Rocha,UY,2020-02-19 00:14:21,-34.48,-54.33,66.2,87,12,9.46,few clouds,0,0
218,Kudahuvadhoo,MV,2020-02-19 00:14:21,2.67,72.89,81.84,75,24,17.78,few clouds,0,0
219,Grindavik,IS,2020-02-19 00:14:22,63.84,-22.43,32.0,86,40,8.05,shower rain,0,0
220,Batticaloa,LK,2020-02-19 00:14:22,7.71,81.69,65.68,91,54,3.18,broken clouds,0,0
221,Alihe,CN,2020-02-19 00:14:23,50.57,123.72,2.5,81,0,4.7,clear sky,0,0
222,Ushtobe,KZ,2020-02-19 00:14:23,45.25,77.98,21.7,81,40,5.23,scattered clouds,0,0
223,Purpe,RU,2020-02-19 00:14:23,64.48,76.69,19.99,89,100,17.05,light snow,0,0
224,Russell,US,2020-02-19 00:14:23,32.35,-85.2,70.0,93,90,4.7,light rain,0,0
225,Bageshwar,IN,2020-02-19 00:14:23,29.85,79.77,43.03,30,73,4.45,broken clouds,0,0
226,Tomatlan,MX,2020-02-19 00:14:24,19.93,-105.25,81.72,52,0,4.83,clear sky,0,0
227,Victoria,HK,2020-02-19 00:14:24,22.29,114.16,59.0,62,20,9.17,few clouds,0,0
228,Olenegorsk,RU,2020-02-19 00:14:24,68.15,33.3,12.96,96,87,0.67,overcast clouds,0,0
229,Spassk-Ryazanskiy,RU,2020-02-19 00:14:24,54.41,40.38,34.0,100,98,1.99,overcast clouds,0,0
230,Ahero,KE,2020-02-19 00:14:24,-0.17,34.92,63.5,67,0,6.15,clear sky,0,0
231,Vostok,RU,2020-02-19 00:14:24,46.49,135.88,7.21,93,100,3.78,light snow,0,0
232,Ewo,CG,2020-02-19 00:14:25,-0.87,14.82,74.25,74,50,5.75,scattered clouds,0,0
233,Zhicheng,CN,2020-02-19 00:14:25,30.3,111.5,45.16,68,71,1.25,broken clouds,0,0
234,Ligayan,PH,2020-02-19 00:14:25,4.65,119.47,81.88,77,100,20.87,moderate rain,0,0
235,Brae,GB,2020-02-19 00:14:25,60.4,-1.35,42.8,93,1,3.36,clear sky,0,0
236,Bergen,NO,2020-02-19 00:14:25,60.39,5.33,39.99,93,75,14.99,broken clouds,0,0
237,Dzhebariki-Khaya,RU,2020-02-19 00:14:25,62.22,135.8,-12.46,98,99,1.72,overcast clouds,0,0
238,Tupik,RU,2020-02-19 00:14:25,54.43,119.93,-10.82,94,42,2.3,scattered clouds,0,0
239,Firminy,FR,2020-02-19 00:14:26,45.39,4.29,41.0,87,90,6.93,overcast clouds,0,0
240,Nushki,PK,2020-02-19 00:14:26,29.55,66.02,50.79,49,100,3.27,overcast clouds,0,0
241,Belmonte,BR,2020-02-19 00:14:26,-15.86,-38.88,80.6,83,40,8.05,scattered clouds,0,0
242,Broome,US,2020-02-19 00:14:26,42.25,-75.83,41.0,93,90,9.17,light rain,0,0
243,Thinadhoo,MV,2020-02-19 00:14:26,0.53,72.93,82.15,80,32,13.49,light rain,0,0
244,Mount Gambier,AU,2020-02-19 00:14:26,-37.83,140.77,60.8,87,75,17.22,broken clouds,0,0
245,Cururupu,BR,2020-02-19 00:14:26,-1.83,-44.87,74.68,99,100,2.46,overcast clouds,0,0
246,Antofagasta,CL,2020-02-19 00:14:26,-23.65,-70.4,69.8,73,40,12.75,scattered clouds,0,0
247,Wattegama,LK,2020-02-19 00:14:27,6.8,81.48,65.3,90,9,4.81,clear sky,0,0
248,Yumen,CN,2020-02-19 00:14:27,40.28,97.2,26.47,37,84,16.82,broken clouds,0,0
249,Korla,CN,2020-02-19 00:14:27,41.76,86.15,30.0,88,100,3.24,light snow,0,0
250,Reinosa,ES,2020-02-19 00:14:27,43.0,-4.14,48.99,81,40,8.05,scattered clouds,0,0
251,Iquique,CL,2020-02-19 00:14:27,-20.22,-70.14,75.2,60,64,14.99,broken clouds,0,0
252,Sechura,PE,2020-02-19 00:14:27,-5.56,-80.82,74.64,84,47,17.38,scattered clouds,0,0
253,Inhambane,MZ,2020-02-19 00:14:27,-23.86,35.38,80.11,82,21,9.44,light rain,0,0
254,Pandamatenga,BW,2020-02-19 00:14:27,-18.53,25.63,66.54,96,99,5.64,light rain,0,0
255,Sao Joao Da Barra,BR,2020-02-19 00:14:28,-21.64,-41.05,78.8,83,0,11.41,clear sky,0,0
256,Bathsheba,BB,2020-02-19 00:14:28,13.22,-59.52,73.4,94,75,17.22,shower rain,0,0
257,Mount Isa,AU,2020-02-19 00:14:28,-20.73,139.5,93.2,32,45,8.05,scattered clouds,0,0
258,Bahia Blanca,AR,2020-02-19 00:12:37,-38.72,-62.27,72.01,18,0,6.58,clear sky,0,0
259,Lompoc,US,2020-02-19 00:14:28,34.64,-120.46,66.2,51,1,6.93,clear sky,0,0
260,Victor Harbor,AU,2020-02-19 00:14:28,-35.57,138.62,66.2,42,75,14.99,broken clouds,0,0
261,Flinders,AU,2020-02-19 00:14:28,-34.58,150.86,79.0,43,20,19.46,few clouds,0,0
262,Kieta,PG,2020-02-19 00:14:28,-6.22,155.63,85.15,66,96,8.12,overcast clouds,0,0
263,Neepawa,CA,2020-02-19 00:14:29,50.23,-99.47,-4.0,58,5,16.11,clear sky,0,0
264,Fort Nelson,CA,2020-02-19 00:14:29,58.81,-122.7,14.0,66,75,4.7,broken clouds,0,0
265,Cesvaine,LV,2020-02-19 00:14:29,56.97,26.32,35.8,82,70,9.57,broken clouds,0,0
266,Vacaria,BR,2020-02-19 00:14:29,-28.51,-50.93,73.99,89,100,4.32,light rain,0,0
267,Kamenka,RU,2020-02-19 00:14:29,51.32,42.77,34.0,95,100,8.01,light snow,0,0
268,Chisec,GT,2020-02-19 00:14:30,15.82,-90.28,77.63,75,0,2.08,clear sky,0,0
269,Esil,KZ,2020-02-19 00:14:30,51.96,66.4,28.6,94,100,26.17,light snow,0,0
270,Ajdabiya,LY,2020-02-19 00:14:30,30.76,20.23,58.6,65,40,12.35,scattered clouds,0,0
271,Aswan,EG,2020-02-19 00:10:49,24.09,32.91,55.44,50,0,8.7,clear sky,0,0
272,San Quintin,MX,2020-02-19 00:14:31,30.48,-115.95,60.49,74,0,9.22,clear sky,0,0
273,Kisangani,CD,2020-02-19 00:14:31,0.52,25.2,70.68,98,100,3.2,light rain,0,0
274,Sur,OM,2020-02-19 00:14:31,22.57,59.53,64.6,50,0,1.88,clear sky,0,0
275,Caxias,PT,2020-02-19 00:14:31,38.7,-9.28,52.0,81,0,19.46,clear sky,0,0
276,Rudbar,AF,2020-02-19 00:14:31,30.15,62.6,47.48,54,100,13.29,overcast clouds,0,0
277,Mayumba,GA,2020-02-19 00:14:31,-3.43,10.66,82.53,80,0,4.27,light rain,0,0
278,Mecca,SA,2020-02-19 00:14:31,21.43,39.83,70.32,76,52,3.27,broken clouds,0,0
279,Petropavlovsk-Kamchatskiy,RU,2020-02-19 00:14:32,53.05,158.65,5.0,54,0,6.71,clear sky,0,0
280,Ibia,BR,2020-02-19 00:14:32,-19.48,-46.54,71.01,94,100,3.36,light rain,0,0
281,Nanortalik,GL,2020-02-19 00:14:32,60.14,-45.24,23.07,66,51,33.51,broken clouds,0,0
282,Wonthaggi,AU,2020-02-19 00:14:32,-38.6,145.59,61.0,88,99,15.23,light rain,0,0
283,Cayenne,GF,2020-02-19 00:14:32,4.93,-52.33,80.6,74,75,8.05,broken clouds,0,0
284,Nome,US,2020-02-19 00:14:32,64.5,-165.41,26.01,85,90,14.99,overcast clouds,0,0
285,Salalah,OM,2020-02-19 00:14:32,17.02,54.09,71.6,73,20,3.36,few clouds,0,0
286,Cartagena,CO,2020-02-19 00:14:32,10.4,-75.51,82.4,78,0,13.87,clear sky,0,0
287,Coquimbo,CL,2020-02-19 00:14:33,-29.95,-71.34,64.4,77,0,11.41,clear sky,0,0
288,Diapaga,BF,2020-02-19 00:14:33,12.07,1.79,74.59,14,0,7.0,clear sky,0,0
289,Taksimo,RU,2020-02-19 00:14:33,56.34,114.88,-10.23,84,0,1.32,clear sky,0,0
290,Port Hedland,AU,2020-02-19 00:14:33,-20.32,118.57,84.2,58,22,11.41,few clouds,0,0
291,Guaruja,BR,2020-02-19 00:14:33,-23.99,-46.26,75.2,78,75,12.75,thunderstorm,0,0
292,Matagalpa,NI,2020-02-19 00:14:34,12.93,-85.92,75.2,69,40,4.7,scattered clouds,0,0
293,Longyearbyen,SJ,2020-02-19 00:14:34,78.22,15.64,-0.4,64,20,12.75,few clouds,0,0
294,Korcula,HR,2020-02-19 00:14:34,42.96,17.14,46.4,61,99,1.12,overcast clouds,0,0
295,Chernyshevskiy,RU,2020-02-19 00:12:06,63.01,112.47,-12.86,97,19,4.29,few clouds,0,0
296,Umm Kaddadah,SD,2020-02-19 00:14:35,13.6,26.69,67.26,26,36,11.79,scattered clouds,0,0
297,Abha,SA,2020-02-19 00:14:35,18.22,42.51,60.8,51,0,1.25,clear sky,0,0
298,Northam,GB,2020-02-19 00:14:35,51.03,-4.22,45.0,80,20,10.29,few clouds,0,0
299,Torbay,CA,2020-02-19 00:14:35,47.67,-52.73,19.0,66,20,13.87,few clouds,0,0
300,Jaru,BR,2020-02-19 00:14:35,-10.44,-62.47,77.52,90,100,2.33,light rain,0,0
301,Bekhteyevka,RU,2020-02-19 00:14:35,50.81,37.21,35.6,100,90,4.47,fog,0,0
302,Tooele,US,2020-02-19 00:09:40,40.53,-112.3,37.4,47,1,5.82,clear sky,0,0
303,Richards Bay,ZA,2020-02-19 00:14:35,-28.78,32.04,76.93,82,83,21.52,light rain,0,0
304,Plettenberg Bay,ZA,2020-02-19 00:14:35,-34.05,23.37,68.43,85,0,3.31,clear sky,0,0
305,Aden,YE,2020-02-19 00:12:46,12.78,45.04,73.62,78,0,9.73,clear sky,0,0
306,Harper,LR,2020-02-19 00:14:36,4.38,-7.72,77.18,90,0,1.99,clear sky,0,0
307,Gazli,UZ,2020-02-19 00:14:36,40.13,63.45,28.26,59,0,10.67,clear sky,0,0
308,Lagoa,PT,2020-02-19 00:14:36,39.05,-27.98,59.09,70,83,14.67,broken clouds,0,0
309,Nuuk,GL,2020-02-19 00:14:36,64.18,-51.72,12.2,78,75,9.17,light shower snow,0,0
310,Pozo Colorado,PY,2020-02-19 00:14:36,-23.49,-58.8,82.09,75,79,13.71,light rain,0,0
311,Dikson,RU,2020-02-19 00:14:36,73.51,80.55,17.46,87,100,38.05,light snow,0,0
312,Pishin,PK,2020-02-19 00:14:36,30.58,67.0,44.8,52,31,10.87,scattered clouds,0,0
313,Lais,PH,2020-02-19 00:14:37,6.33,125.65,76.98,81,73,12.93,light rain,0,0
314,Manggar,ID,2020-02-19 00:14:37,-2.88,108.27,82.8,78,78,17.96,broken clouds,0,0
315,Kalamnuri,IN,2020-02-19 00:14:37,19.67,77.33,66.78,23,0,4.34,clear sky,0,0
316,Lokosovo,RU,2020-02-19 00:14:37,61.13,74.82,30.9,97,100,8.75,light snow,0,0
317,Mwanza,TZ,2020-02-19 00:14:37,-2.52,32.9,71.6,83,20,7.27,few clouds,0,0
318,Sitka,US,2020-02-19 00:14:37,57.05,-135.33,44.6,65,75,13.87,broken clouds,0,0
319,New Milford,US,2020-02-19 00:11:56,40.93,-74.02,46.0,87,90,3.0,light rain,0,0
320,Jacareacanga,BR,2020-02-19 00:14:37,-6.22,-57.75,75.61,96,95,1.52,light rain,0,0
321,Bloemfontein,ZA,2020-02-19 00:12:29,-29.12,26.21,60.8,93,80,6.51,broken clouds,0,0
322,Barcelos,PT,2020-02-19 00:14:38,41.54,-8.62,46.99,87,0,3.36,clear sky,0,0
323,Fairbanks,US,2020-02-19 00:10:32,64.84,-147.72,23.0,85,1,1.63,clear sky,0,0
324,Dakar,SN,2020-02-19 00:14:38,14.69,-17.44,82.4,39,0,13.87,clear sky,0,0
325,Kushima,JP,2020-02-19 00:14:38,31.46,131.23,39.2,64,20,9.17,few clouds,0,0
326,Mitchell,US,2020-02-19 00:10:09,43.71,-98.03,14.0,72,90,17.22,overcast clouds,0,0
327,Beira,MZ,2020-02-19 00:14:38,-19.84,34.84,82.4,78,40,4.7,scattered clouds,0,0
328,Belle Fourche,US,2020-02-19 00:14:38,44.67,-103.85,21.2,92,90,8.05,overcast clouds,0,0
329,Shimoda,JP,2020-02-19 00:14:38,34.67,138.95,48.2,49,75,10.29,broken clouds,0,0
330,Maple Creek,CA,2020-02-19 00:14:39,49.92,-109.48,-0.2,93,100,5.1,overcast clouds,0,0
331,Harindanga,IN,2020-02-19 00:14:39,22.04,88.32,62.6,93,0,3.36,mist,0,0
332,Talnakh,RU,2020-02-19 00:14:39,69.49,88.4,12.2,85,100,35.79,light snow,0,0
333,Tanabe,JP,2020-02-19 00:14:40,33.73,135.37,46.0,69,20,4.7,few clouds,0,0
334,Amarante Do Maranhao,BR,2020-02-19 00:14:40,-5.57,-46.74,74.26,95,100,2.13,light rain,0,0
335,Hithadhoo,MV,2020-02-19 00:14:41,-0.6,73.08,82.83,78,3,11.48,light rain,0,0
336,Pringsewu,ID,2020-02-19 00:14:41,-5.36,104.97,72.16,97,45,2.71,scattered clouds,0,0
337,Myaundzha,RU,2020-02-19 00:12:06,63.05,147.19,-7.65,89,100,2.44,overcast clouds,0,0
338,Abu Samrah,SY,2020-02-19 00:14:41,35.3,37.18,46.89,90,91,8.93,overcast clouds,0,0
339,Praia Da Vitoria,PT,2020-02-19 00:14:41,38.73,-27.07,59.0,67,75,11.54,broken clouds,0,0
340,Algodones,MX,2020-02-19 00:14:41,20.39,-105.48,77.0,73,5,9.17,clear sky,0,0
341,Kapuskasing,CA,2020-02-19 00:14:41,49.42,-82.43,10.4,78,75,14.99,light snow,0,0
342,Chulucanas,PE,2020-02-19 00:14:42,-5.09,-80.16,72.52,66,98,7.96,overcast clouds,0,0
343,Aleksandrovsk-Sakhalinskiy,RU,2020-02-19 00:14:42,50.9,142.16,1.89,95,91,5.82,overcast clouds,0,0
344,Inyonga,TZ,2020-02-19 00:14:42,-6.72,32.07,65.34,96,2,3.71,clear sky,0,0
345,Puerto Madryn,AR,2020-02-19 00:14:42,-42.77,-65.04,75.7,25,78,13.62,broken clouds,0,0
346,Severo-Kurilsk,RU,2020-02-19 00:14:42,50.68,156.12,19.58,85,100,5.12,overcast clouds,0,0
347,Santa Ana Arriba,DO,2020-02-19 00:14:42,19.3,-70.35,78.8,88,40,11.41,scattered clouds,0,0
348,Adre,TD,2020-02-19 00:14:42,13.47,22.2,67.37,24,35,11.54,scattered clouds,0,0
349,Cabo San Lucas,MX,2020-02-19 00:14:42,22.89,-109.91,81.0,22,5,10.29,clear sky,0,0
350,Fortuna,US,2020-02-19 00:14:43,40.6,-124.16,55.99,62,1,10.29,clear sky,0,0
351,Pitimbu,BR,2020-02-19 00:14:43,-7.47,-34.81,80.6,83,20,11.41,few clouds,0,0
352,Kahului,US,2020-02-19 00:14:43,20.89,-156.47,82.4,54,20,18.34,few clouds,0,0
353,Snyder,US,2020-02-19 00:14:43,32.72,-100.92,51.01,49,1,9.17,clear sky,0,0
354,San Pedro De Macoris,DO,2020-02-19 00:14:43,18.46,-69.3,80.6,65,40,4.7,scattered clouds,0,0
355,Ereymentau,KZ,2020-02-19 00:14:43,51.62,73.1,19.31,94,100,26.49,snow,0,0
356,Kalmunai,LK,2020-02-19 00:14:43,7.42,81.82,79.3,67,29,11.48,scattered clouds,0,0
357,Bibiani,GH,2020-02-19 00:14:44,6.46,-2.32,74.21,86,9,2.51,clear sky,0,0
358,Adrar,MR,2020-02-19 00:14:44,20.5,-10.07,71.96,13,59,12.19,broken clouds,0,0
359,Koumac,NC,2020-02-19 00:14:44,-20.57,164.28,85.51,54,3,5.46,clear sky,0,0
360,Santa Clarita,US,2020-02-19 00:13:33,34.39,-118.54,72.0,49,1,6.93,clear sky,0,0
361,Eyrarbakki,IS,2020-02-19 00:14:44,63.86,-21.15,32.0,80,75,9.17,light shower snow,0,0
362,Pevek,RU,2020-02-19 00:14:44,69.7,170.31,-20.67,99,100,6.17,overcast clouds,0,0
363,Amahai,ID,2020-02-19 00:14:44,-3.33,128.92,82.47,72,98,10.0,overcast clouds,0,0
364,Anuradhapura,LK,2020-02-19 00:14:45,8.36,80.42,64.81,95,5,3.11,clear sky,0,0
365,San Ignacio,BZ,2020-02-19 00:14:45,17.16,-89.07,89.6,46,20,11.41,few clouds,0,0
366,Maracacume,BR,2020-02-19 00:14:45,-2.04,-45.96,75.02,98,100,2.89,light rain,0,0
367,Bandarbeyla,SO,2020-02-19 00:14:45,9.49,50.81,76.98,80,33,12.93,light rain,0,0
368,Kurchum,KZ,2020-02-19 00:14:45,48.57,83.65,10.35,95,99,3.27,light snow,0,0
369,Port Hardy,CA,2020-02-19 00:14:45,50.7,-127.42,42.8,70,5,9.17,clear sky,0,0
370,Vardo,NO,2020-02-19 00:14:45,70.37,31.11,21.2,79,40,17.22,shower rain,0,0
371,Brewster,US,2020-02-19 00:14:45,41.4,-73.62,43.0,100,90,3.36,light rain,0,0
372,Meulaboh,ID,2020-02-19 00:14:46,4.14,96.13,81.05,81,96,8.19,light rain,0,0
373,Sioux Lookout,CA,2020-02-19 00:14:46,50.1,-91.92,1.4,59,20,10.29,few clouds,0,0
374,Fort Wellington,GY,2020-02-19 00:14:46,6.4,-57.6,79.86,77,94,20.38,light rain,0,0
375,Road Town,VG,2020-02-19 00:14:46,18.42,-64.62,78.8,69,20,13.87,light rain,0,0
376,Sassandra,CI,2020-02-19 00:14:46,4.95,-6.08,79.75,85,0,5.66,clear sky,0,0
377,Palu,ID,2020-02-19 00:12:56,-0.89,119.87,71.71,89,100,1.19,overcast clouds,0,0
378,Chalakudi,IN,2020-02-19 00:14:46,10.3,76.34,73.4,88,11,6.02,mist,0,0
379,Balkhash,KZ,2020-02-19 00:14:46,46.84,74.98,4.57,85,41,6.85,scattered clouds,0,0
380,Ambon,ID,2020-02-19 00:14:46,-3.7,128.18,84.2,74,75,4.7,broken clouds,0,0
381,Kidal,ML,2020-02-19 00:14:47,18.44,1.41,68.22,13,46,11.52,scattered clouds,0,0
382,Marfino,RU,2020-02-19 00:14:47,55.7,37.38,39.2,86,75,11.18,broken clouds,0,0
383,Acapulco,MX,2020-02-19 00:14:02,16.86,-99.89,86.0,58,5,8.05,clear sky,0,0
384,Virden,US,2020-02-19 00:14:47,39.5,-89.77,36.0,74,1,5.82,clear sky,0,0
385,Nanakuli,US,2020-02-19 00:14:47,21.39,-158.15,82.4,88,90,12.75,overcast clouds,0,0
386,Miri,MY,2020-02-19 00:13:28,4.41,114.01,75.2,100,75,3.36,broken clouds,0,0
387,Zhangye,CN,2020-02-19 00:14:48,38.93,100.45,25.52,26,0,2.64,clear sky,0,0
388,Tautira,PF,2020-02-19 00:14:48,-17.73,-149.15,87.8,66,40,13.87,scattered clouds,0,0
389,Gladstone,AU,2020-02-19 00:13:43,-23.85,151.25,90.0,62,40,5.82,scattered clouds,0,0
390,Molina,CL,2020-02-19 00:14:48,-35.12,-71.28,84.2,18,0,10.29,clear sky,0,0
391,Gigmoto,PH,2020-02-19 00:14:49,13.78,124.39,77.27,80,90,29.64,light rain,0,0
392,Provideniya,RU,2020-02-19 00:12:07,64.38,-173.3,10.4,72,90,15.66,overcast clouds,0,0
393,Erdenet,MN,2020-02-19 00:14:49,49.03,104.08,-0.87,92,2,1.95,clear sky,0,0
394,Te Anau,NZ,2020-02-19 00:14:49,-45.42,167.72,56.93,66,42,6.29,light rain,0,0
395,Jaciara,BR,2020-02-19 00:14:49,-15.97,-54.97,76.35,86,83,0.45,light rain,0,0
396,Bilibino,RU,2020-02-19 00:14:49,68.05,166.44,-26.48,98,94,1.28,overcast clouds,0,0
397,Vagur,FO,2020-02-19 00:14:50,61.47,-6.81,42.96,80,7,15.01,light rain,0,0
398,Holme,DK,2020-02-19 00:14:50,56.11,10.17,41.0,93,94,8.05,light intensity shower rain,0,0
399,Veraval,IN,2020-02-19 00:14:50,20.9,70.37,69.51,52,47,6.76,scattered clouds,0,0
400,Beaver Dam,US,2020-02-19 00:10:47,43.46,-88.84,30.2,68,1,9.17,clear sky,0,0
401,Saint-Augustin,CA,2020-02-19 00:14:50,51.23,-58.65,8.96,81,0,15.93,clear sky,0,0
402,Shingu,JP,2020-02-19 00:14:51,33.73,135.98,39.2,69,20,4.7,few clouds,0,0
403,Trogir,HR,2020-02-19 00:14:51,43.51,16.25,52.0,43,92,3.36,overcast clouds,0,0
404,Monchegorsk,RU,2020-02-19 00:14:51,67.94,32.87,12.81,94,76,2.48,broken clouds,0,0
405,Ojinaga,MX,2020-02-19 00:14:51,29.57,-104.42,69.8,35,1,4.7,clear sky,0,0
406,Vincennes,FR,2020-02-19 00:14:51,48.85,2.43,46.99,81,100,14.99,light rain,0,0
407,Tambacounda,SN,2020-02-19 00:14:51,13.75,-13.76,86.0,9,0,6.93,clear sky,0,0
408,Rincon,US,2020-02-19 00:11:25,32.3,-81.24,66.2,100,90,5.82,mist,0,0
409,Lavrentiya,RU,2020-02-19 00:14:51,65.58,-171.0,-4.77,80,100,10.13,light snow,0,0
410,Ransang,PH,2020-02-19 00:14:52,8.96,117.58,79.63,71,0,7.09,clear sky,0,0
411,Matagami,CA,2020-02-19 00:14:52,49.75,-77.63,14.0,92,90,9.17,light snow,0,0
412,Luena,AO,2020-02-19 00:14:52,-11.78,19.92,63.63,96,85,2.66,moderate rain,0,0
413,Bairiki,KI,2020-02-19 00:14:52,1.33,172.98,87.8,74,40,12.75,scattered clouds,0,0
414,Ballina,AU,2020-02-19 00:14:52,-28.87,153.57,87.01,66,31,10.29,scattered clouds,0,0
415,Vaitape,PF,2020-02-19 00:14:52,-16.52,-151.75,82.69,77,99,12.55,overcast clouds,0,0
416,Waiuku,NZ,2020-02-19 00:10:29,-37.25,174.75,81.0,61,66,8.05,broken clouds,0,0
417,Kruisfontein,ZA,2020-02-19 00:14:52,-34.0,24.73,63.68,93,44,8.08,scattered clouds,0,0
418,Tuatapere,NZ,2020-02-19 00:14:53,-46.13,167.68,61.0,76,32,15.99,light rain,0,0
419,Mizdah,LY,2020-02-19 00:14:53,31.45,12.98,46.85,70,0,0.94,clear sky,0,0
420,Sulzbach-Rosenberg,DE,2020-02-19 00:14:53,49.5,11.75,42.8,87,50,10.29,scattered clouds,0,0
421,Kaeo,NZ,2020-02-19 00:10:24,-35.1,173.78,82.0,77,85,2.91,overcast clouds,0,0
422,Maine-Soroa,NE,2020-02-19 00:14:53,13.21,12.02,68.25,22,100,8.39,overcast clouds,0,0
423,Ulladulla,AU,2020-02-19 00:14:53,-35.35,150.47,73.4,43,20,19.46,few clouds,0,0
424,Atambua,ID,2020-02-19 00:14:53,-9.11,124.89,80.26,83,59,1.77,light rain,0,0
425,Mbini,GQ,2020-02-19 00:14:53,1.57,9.61,80.89,81,68,6.69,broken clouds,0,0
426,Batagay,RU,2020-02-19 00:12:06,67.63,134.63,-16.24,90,80,2.86,broken clouds,0,0
427,Kovdor,RU,2020-02-19 00:14:53,67.57,30.48,17.13,96,100,3.96,overcast clouds,0,0
428,Zenzeli,RU,2020-02-19 00:14:54,45.92,47.05,41.94,82,94,11.86,overcast clouds,0,0
429,Maniitsoq,GL,2020-02-19 00:14:54,65.42,-52.9,11.03,85,100,11.54,light snow,0,0
430,Kharp,RU,2020-02-19 00:14:54,66.8,65.81,23.5,98,99,5.82,light snow,0,0
431,Ngunguru,NZ,2020-02-19 00:14:54,-35.62,174.5,75.0,72,97,5.99,overcast clouds,0,0
432,Saryagash,KZ,2020-02-19 00:14:54,41.45,69.17,30.2,92,90,6.93,mist,0,0
433,Havre-Saint-Pierre,CA,2020-02-19 00:14:54,50.23,-63.6,15.8,66,90,10.29,overcast clouds,0,0
434,San Carlos Del Zulia,VE,2020-02-19 00:14:54,9.0,-71.91,82.27,64,95,7.99,overcast clouds,0,0
435,Trairi,BR,2020-02-19 00:14:55,-3.28,-39.27,75.31,93,100,1.95,light rain,0,0
436,Morro Bay,US,2020-02-19 00:14:55,35.37,-120.85,68.0,31,1,13.87,clear sky,0,0
437,Araouane,ML,2020-02-19 00:14:55,18.9,-3.53,73.83,13,11,8.97,few clouds,0,0
438,Broken Hill,AU,2020-02-19 00:14:55,-31.95,141.43,62.6,59,90,21.92,overcast clouds,0,0
439,Twin Falls,US,2020-02-19 00:11:22,42.56,-114.46,37.4,24,1,3.36,clear sky,0,0
440,Tutoia,BR,2020-02-19 00:14:55,-2.76,-42.27,75.99,95,100,5.39,moderate rain,0,0
441,Novyy Urengoy,RU,2020-02-19 00:12:05,66.08,76.63,18.32,94,100,14.76,light snow,0,0
442,Muzhi,RU,2020-02-19 00:14:55,65.37,64.67,27.79,86,70,10.67,broken clouds,0,0
443,Vallenar,CL,2020-02-19 00:13:08,-28.57,-70.76,64.42,71,0,2.66,clear sky,0,0
444,Molde,NO,2020-02-19 00:14:56,62.74,7.16,41.0,86,69,12.75,light intensity shower rain,0,0
445,Sollies-Pont,FR,2020-02-19 00:14:56,43.19,6.04,51.01,49,0,3.36,clear sky,0,0
446,Faro,PT,2020-02-19 00:14:24,37.02,-7.93,57.2,62,0,10.29,clear sky,0,0
447,Jerusalem,IL,2020-02-19 00:14:56,31.77,35.22,59.0,87,90,9.17,overcast clouds,0,0
448,Tierra Colorada,MX,2020-02-19 00:14:56,17.17,-99.58,86.0,58,5,8.05,clear sky,0,0
449,Husavik,IS,2020-02-19 00:14:56,66.04,-17.34,26.6,92,75,6.93,light snow,0,0
450,Hatillo,PR,2020-02-19 00:14:56,18.49,-66.83,79.0,75,40,19.46,scattered clouds,0,0
451,Visnes,NO,2020-02-19 00:14:57,59.36,5.22,42.01,80,96,11.41,light rain,0,0
452,Honiara,SB,2020-02-19 00:14:57,-9.43,159.95,85.05,62,0,6.35,clear sky,0,0
453,Amga,RU,2020-02-19 00:14:57,60.9,131.96,-19.68,98,94,1.52,overcast clouds,0,0
454,Sorong,ID,2020-02-19 00:14:57,-0.88,131.25,78.22,85,100,5.61,overcast clouds,0,0
455,Bealanana,MG,2020-02-19 00:14:57,-14.55,48.73,67.5,97,100,0.6,light rain,0,0
456,Cap Malheureux,MU,2020-02-19 00:14:57,-19.98,57.61,78.8,74,40,6.93,light rain,0,0
457,Mango,US,2020-02-19 00:14:57,27.98,-82.31,80.01,73,1,3.36,clear sky,0,0
458,Mormugao,IN,2020-02-19 00:14:57,15.4,73.8,67.28,60,0,2.17,clear sky,0,0
459,Springbok,ZA,2020-02-19 00:14:58,-29.66,17.89,71.67,36,0,8.57,clear sky,0,0
460,Harboore,DK,2020-02-19 00:14:58,56.62,8.18,39.99,93,93,9.17,moderate rain,0,0
461,Mae Hong Son,TH,2020-02-19 00:14:58,19.3,97.97,54.55,76,13,2.35,few clouds,0,0
462,Nenjiang,CN,2020-02-19 00:14:58,49.18,125.22,3.11,83,0,4.88,clear sky,0,0
463,Plouzane,FR,2020-02-19 00:14:58,48.38,-4.62,50.0,87,93,18.34,light rain,0,0
464,Tubuala,PA,2020-02-19 00:14:58,9.52,-79.03,84.2,66,40,8.05,scattered clouds,0,0
465,Yulara,AU,2020-02-19 00:14:58,-25.24,130.99,78.8,21,4,18.34,clear sky,0,0
466,Longjiang,CN,2020-02-19 00:14:58,47.33,123.18,6.17,81,0,6.67,clear sky,0,0
467,Las Tunas,CU,2020-02-19 00:14:59,20.96,-76.95,80.6,65,0,16.11,clear sky,0,0
468,Naples,IT,2020-02-19 00:12:35,40.83,14.25,55.99,81,40,1.12,light rain,0,0
469,Mutis,CO,2020-02-19 00:14:59,6.23,-77.4,81.52,83,0,8.79,clear sky,0,0
470,Kungurtug,RU,2020-02-19 00:14:59,50.6,97.52,2.01,97,100,0.69,light snow,0,0
471,Tessalit,ML,2020-02-19 00:14:59,20.2,1.01,69.06,13,80,11.36,broken clouds,0,0
472,Sampit,ID,2020-02-19 00:15:00,-2.53,112.95,77.0,86,91,1.16,overcast clouds,0,0
473,Aitape,PG,2020-02-19 00:15:00,-3.14,142.35,81.09,80,65,11.63,moderate rain,0,0
474,Santa Cruz,BO,2020-02-19 00:15:00,-17.8,-63.17,84.2,74,75,8.05,broken clouds,0,0
475,Ankang,CN,2020-02-19 00:15:00,32.68,109.02,41.45,63,100,2.51,overcast clouds,0,0
476,Namatanai,PG,2020-02-19 00:15:01,-3.67,152.43,79.83,85,100,9.37,moderate rain,0,0
477,Raudeberg,NO,2020-02-19 00:15:02,61.99,5.14,39.2,86,100,17.22,light intensity shower rain,0,0
478,Marawi,PH,2020-02-19 00:15:02,8.0,124.29,77.0,78,4,5.99,clear sky,0,0
479,Shanhetun,CN,2020-02-19 00:15:02,44.7,127.2,10.53,90,23,5.93,few clouds,0,0
480,Klyuchi,RU,2020-02-19 00:15:02,52.27,79.17,20.55,94,100,18.68,snow,0,0
481,Kuytun,RU,2020-02-19 00:15:03,54.34,101.5,4.01,97,100,2.01,overcast clouds,0,0
482,Ardatov,RU,2020-02-19 00:15:03,55.24,43.1,33.76,98,100,6.98,overcast clouds,0,0
483,Abu Zabad,SD,2020-02-19 00:15:03,12.35,29.25,68.67,21,0,11.61,clear sky,0,0
484,Aksay,RU,2020-02-19 00:15:03,47.26,39.87,28.4,92,1,2.24,mist,0,0
485,Kysyl-Syr,RU,2020-02-19 00:15:03,63.9,122.76,-16.42,98,92,2.82,overcast clouds,0,0
486,Battle Creek,US,2020-02-19 00:15:03,42.32,-85.18,30.99,68,1,12.75,clear sky,0,0
487,Surovikino,RU,2020-02-19 00:15:03,48.61,42.85,29.59,88,0,6.38,clear sky,0,0
488,Kirakira,SB,2020-02-19 00:15:04,-10.45,161.92,84.74,69,14,4.25,light rain,0,0
489,Telbang,PH,2020-02-19 00:15:04,16.17,120.06,74.41,53,6,9.28,clear sky,0,0
490,Olga,RU,2020-02-19 00:15:04,43.74,135.29,23.58,63,19,9.55,few clouds,0,0
491,Shubarshi,KZ,2020-02-19 00:15:04,48.59,57.19,22.06,80,95,12.28,overcast clouds,0,0
492,La Asuncion,VE,2020-02-19 00:15:04,11.03,-63.86,82.4,69,68,16.11,broken clouds,0,0
493,Daru,PG,2020-02-19 00:15:04,-9.08,143.21,85.5,70,100,7.34,overcast clouds,0,0
494,Muros,ES,2020-02-19 00:15:04,42.78,-9.06,51.01,100,2,1.12,clear sky,0,0
495,Kulhudhuffushi,MV,2020-02-19 00:15:04,6.62,73.07,81.5,68,19,9.19,few clouds,0,0
496,Faya,SA,2020-02-19 00:15:05,18.39,42.45,60.8,51,0,3.56,clear sky,0,0
497,Palauig,PH,2020-02-19 00:15:05,15.44,119.9,74.37,52,0,4.36,clear sky,0,0
498,San Patricio,MX,2020-02-19 00:15:05,19.22,-104.7,82.4,78,5,5.82,clear sky,0,0
499,Hamilton,US,2020-02-19 00:12:15,39.18,-84.53,41.0,80,90,6.93,overcast clouds,0,0
500,Leshukonskoye,RU,2020-02-19 00:15:05,64.9,45.76,33.46,98,100,8.37,light snow,0,0
501,Pouembout,NC,2020-02-19 00:15:05,-21.13,164.9,81.95,68,10,7.9,clear sky,0,0
502,Mantua,IT,2020-02-19 00:15:06,45.17,10.78,48.99,93,99,3.36,fog,0,0
503,Vila Franca Do Campo,PT,2020-02-19 00:15:06,37.72,-25.43,55.4,93,75,8.05,broken clouds,0,0
504,Atar,MR,2020-02-19 00:15:07,20.52,-13.05,71.85,13,60,6.4,broken clouds,0,0
505,Ternate,ID,2020-02-19 00:15:07,0.8,127.4,80.24,68,100,2.68,overcast clouds,0,0
506,La Palma,US,2020-02-19 00:15:07,33.85,-118.05,75.0,68,1,9.17,clear sky,0,0
507,Katobu,ID,2020-02-19 00:15:07,-4.94,122.53,81.21,79,79,3.42,broken clouds,0,0
508,Wencheng,CN,2020-02-19 00:15:07,33.06,113.8,42.15,56,99,4.29,overcast clouds,0,0
509,Los Llanos De Aridane,ES,2020-02-19 00:10:44,28.66,-17.92,66.2,68,75,13.87,broken clouds,0,0
510,Inongo,CD,2020-02-19 00:15:07,-1.95,18.27,71.73,98,100,3.44,light rain,0,0
511,Wamba,NG,2020-02-19 00:15:08,8.93,8.6,76.23,27,27,3.89,scattered clouds,0,0
512,Lata,PT,2020-02-19 00:15:08,40.16,-8.33,52.0,87,0,4.7,clear sky,0,0
513,Port Macquarie,AU,2020-02-19 00:15:08,-31.43,152.92,89.01,61,19,8.05,few clouds,0,0
514,Denholm,CA,2020-02-19 00:15:08,52.65,-108.02,-7.6,63,1,3.36,clear sky,0,0
515,Ulaanbaatar,MN,2020-02-19 00:14:38,47.91,106.88,-13.0,75,70,3.8,broken clouds,0,0
516,Lima,PE,2020-02-19 00:14:58,-12.04,-77.03,75.2,83,75,8.05,broken clouds,0,0
517,Magdalena,PH,2020-02-19 00:15:08,14.2,121.43,77.0,73,20,3.36,few clouds,0,0
518,Hokitika,NZ,2020-02-19 00:15:09,-42.72,170.97,65.75,70,51,5.48,broken clouds,0,0
519,Dawei,MM,2020-02-19 00:15:09,14.08,98.2,75.7,73,0,8.21,clear sky,0,0
520,Muyezerskiy,RU,2020-02-19 00:15:09,63.93,31.65,32.94,88,99,13.18,overcast clouds,0,0
521,Banda Aceh,ID,2020-02-19 00:15:09,5.56,95.32,72.9,89,35,5.14,scattered clouds,0,0
522,Raga,SS,2020-02-19 00:15:09,8.46,25.68,70.83,28,2,3.42,clear sky,0,0
523,Soma,TR,2020-02-19 00:15:09,39.19,27.61,41.0,69,0,0.4,mist,0,0
524,Neuquen,AR,2020-02-19 00:15:10,-38.95,-68.06,84.2,21,0,6.93,clear sky,0,0
525,Garchitorena,PH,2020-02-19 00:15:10,13.88,123.69,76.73,80,100,26.73,light rain,0,0
526,Mayo,US,2020-02-19 00:15:10,38.89,-76.51,57.2,81,75,5.82,broken clouds,0,0
527,Batagay-Alyta,RU,2020-02-19 00:15:10,67.8,130.41,-11.04,77,68,4.12,broken clouds,0,0
528,Itoman,JP,2020-02-19 00:15:12,26.12,127.67,60.8,55,90,8.05,overcast clouds,0,0
529,Apold,RO,2020-02-19 00:15:12,46.12,24.82,42.8,92,92,1.12,mist,0,0
530,Poshekhonye,RU,2020-02-19 00:15:12,58.5,39.14,31.77,94,79,12.15,broken clouds,0,0
531,Eureka,US,2020-02-19 00:15:12,40.8,-124.16,55.99,66,1,6.93,clear sky,0,0
532,Kibala,TD,2020-02-19 00:15:13,9.11,18.35,78.8,21,0,6.93,clear sky,0,0
533,Woodward,US,2020-02-19 00:15:13,36.43,-99.39,44.6,38,1,10.29,clear sky,0,0
534,Olinda,BR,2020-02-19 00:15:13,-8.01,-34.86,84.2,66,40,10.29,scattered clouds,0,0
535,Vydrino,RU,2020-02-19 00:15:13,51.48,104.85,6.17,93,53,1.95,broken clouds,0,0
536,Clarence Town,AU,2020-02-19 00:15:13,-32.58,151.78,84.0,57,0,17.22,clear sky,0,0
537,Jinchang,CN,2020-02-19 00:15:13,38.5,102.17,21.49,29,0,2.26,clear sky,0,0
538,Tromso,NO,2020-02-19 00:15:13,69.65,18.96,21.2,85,75,17.22,broken clouds,0,0
539,Contamana,PE,2020-02-19 00:15:13,-7.33,-75.02,83.39,59,73,3.0,broken clouds,0,0
540,Biloela,AU,2020-02-19 00:15:14,-24.42,150.5,82.89,64,7,6.11,clear sky,0,0
541,Morki,RU,2020-02-19 00:15:14,56.43,48.99,34.11,97,100,8.79,overcast clouds,0,0
542,Ende,ID,2020-02-19 00:15:14,-8.84,121.66,82.69,76,100,7.94,overcast clouds,0,0
543,Bonthe,SL,2020-02-19 00:15:14,7.53,-12.51,79.2,85,0,5.91,clear sky,0,0
544,Takoradi,GH,2020-02-19 00:15:14,4.88,-1.76,77.97,88,28,3.33,light rain,0,0
545,Alibag,IN,2020-02-19 00:15:14,18.64,72.88,78.8,65,0,2.19,smoke,0,0
546,Eyl,SO,2020-02-19 00:15:15,7.98,49.82,77.36,81,4,15.95,clear sky,0,0
547,Dunedin,NZ,2020-02-19 00:13:35,-45.87,170.5,54.97,91,85,5.26,overcast clouds,0,0
548,Akhmim,EG,2020-02-19 00:15:15,26.56,31.75,53.6,58,84,6.93,broken clouds,0,0
549,Malanje,AO,2020-02-19 00:15:15,-9.54,16.34,65.68,98,50,3.51,light rain,0,0
550,Sisophon,KH,2020-02-19 00:15:15,13.59,102.97,69.76,63,5,5.12,clear sky,0,0
551,Santiago,CL,2020-02-19 00:15:01,-33.46,-70.65,86.0,22,0,8.05,clear sky,0,0
552,Tecoanapa,MX,2020-02-19 00:15:15,16.52,-98.75,84.43,53,0,6.15,clear sky,0,0
553,Yar-Sale,RU,2020-02-19 00:15:16,66.83,70.83,25.2,91,94,14.12,overcast clouds,0,0
554,Vila,PT,2020-02-19 00:15:11,42.03,-8.16,51.01,81,0,5.82,clear sky,0,0
555,Blagodatnoye,RU,2020-02-19 00:15:16,45.4,42.59,33.8,64,0,4.47,clear sky,0,0
556,Lar,IN,2020-02-19 00:15:16,26.2,83.97,52.34,57,0,3.76,clear sky,0,0
557,San Cristobal,VE,2020-02-19 00:15:16,7.77,-72.22,86.0,55,20,9.17,few clouds,0,0
558,Sturgeon Falls,CA,2020-02-19 00:15:16,46.36,-79.93,28.0,92,90,9.17,light snow,0,0
